City_ID,City,Country,Max Temp,Current Description,Lat,Lng,Hotel Name
4,Bluff,NZ,60.01,clear sky,-46.6,168.33,Bluff Homestead - Guesthouse & Campervan Park
5,Castro,BR,63.59,heavy intensity rain,-24.79,-50.01,CHACARA BAILLY
6,Bilma,NE,66.58,clear sky,18.69,12.92,Expeditions Ténére voyages
14,Cascais,PT,57.99,light rain,38.7,-9.42,Hotel Vila Galé Cascais
15,Nueve De Julio,AR,66.99,clear sky,-35.44,-60.88,Grand Hotel Libertad - GHL
16,Kruisfontein,ZA,59.0,clear sky,-34.0,24.73,Oyster Bay House Rental
20,Mataura,NZ,60.01,broken clouds,-46.19,168.86,Ellie's Villa
22,Ginir,ET,58.03,broken clouds,7.13,40.7,Sura Dare Village
23,Kidal,ML,65.8,clear sky,18.44,1.41,
29,Uthal,PK,66.13,clear sky,25.81,66.62,Al Madina Hotal
35,East London,ZA,60.8,clear sky,-33.02,27.91,Tu Casa
40,Hobart,AU,70.0,scattered clouds,-42.88,147.33,St Ives Hobart Accommodation Tasmania
42,Cape Town,ZA,61.0,clear sky,-33.93,18.42,Southern Sun Waterfront Cape Town
50,Sumbawanga,TZ,59.47,broken clouds,-7.97,31.62,Matamba II Guest House
52,Codrington,AU,61.16,overcast clouds,-38.27,141.97,Codrington Gardens Bed And Breakfast
58,Talpa,MX,55.99,clear sky,28.83,-111.63,
59,Ouesso,CG,69.21,broken clouds,1.61,16.05,Hôtel ABENI
60,Broken Hill,AU,68.0,scattered clouds,-31.95,141.43,Daydream Motel & Cottages
61,Busselton,AU,64.51,light rain,-33.65,115.33,Observatory Guest House
66,Port Alfred,ZA,62.4,scattered clouds,-33.59,26.89,The Halyards Hotel
68,San Patricio,US,66.99,mist,28.02,-97.52,"Motel 6 Sinton, TX"
70,New Norfolk,AU,70.0,scattered clouds,-42.78,147.06,The Shingles Riverside Cottages
76,Biltine,TD,68.09,clear sky,14.53,20.92,Hôtel Trois Étoiles de Biltine
78,Kiomboi,TZ,65.32,overcast clouds,-4.27,34.37,Reyd's Executive Lodge
82,Victoria,HK,70.0,broken clouds,22.29,114.16,Mini Hotel Central
92,Ponta Do Sol,PT,57.2,scattered clouds,32.67,-17.1,Hotel do Campo
94,Tuatapere,NZ,60.01,scattered clouds,-46.13,167.68,Ron and Tony's Bed & Breakfast
96,Jumla,NP,55.98,clear sky,29.27,82.18,Hotel Sundar Rara Karnali
100,General Roca,AR,69.8,light rain,-39.03,-67.58,Hotel El Recreo
101,Port Lincoln,AU,63.32,few clouds,-34.73,135.87,Port Lincoln Hotel
104,Buckeye,US,57.2,clear sky,33.37,-112.58,Buckeye Motor Hotel
108,Dunedin,NZ,57.0,scattered clouds,-45.87,170.5,Scenic Hotel Southern Cross
118,Katsuura,JP,57.99,broken clouds,35.13,140.3,Katsuura Hotel Mikazuki
119,Amudat,UG,68.05,scattered clouds,1.95,34.95,Silent Night Hotel
121,Vallenar,CL,63.21,clear sky,-28.57,-70.76,Humacao Bed & Breakfast
125,San Cristobal,VE,64.45,overcast clouds,7.77,-72.22,Pirineos
126,Puerto Del Rosario,ES,64.4,clear sky,28.5,-13.86,Hotel JM Puerto del Rosario
136,Pisco,PE,64.99,clear sky,-13.7,-76.22,Hotel San Isidro Oficial
140,Port Elizabeth,ZA,59.0,clear sky,-33.92,25.57,39 On Nile Guest House
158,Los Llanos De Aridane,ES,62.6,clear sky,28.66,-17.92,Valle Aridane
171,Ribeira Brava,PT,57.2,scattered clouds,32.65,-17.07,Hotel do Campo
176,Dayong,CN,69.8,broken clouds,25.02,118.29,Haiyue Express Hotel
178,Lima,PE,66.2,clear sky,-12.04,-77.03,Gran Hotel Bolivar Lima
193,Coquimbo,CL,57.2,clear sky,-29.95,-71.34,Hotel San Juan
195,Palaia Fokaia,GR,61.0,scattered clouds,37.72,23.95,Plaza Resort Hotel
196,Colares,PT,57.99,light rain,38.8,-9.45,Arribas Sintra Hotel
198,Doume,CM,66.31,broken clouds,4.23,13.45,Hotel Universel
202,Bahraich,IN,66.99,clear sky,27.58,81.6,Narain Guest House
217,Rincon,US,59.0,overcast clouds,32.3,-81.24,Bent tree subdivision
218,Ntchisi,MW,62.83,scattered clouds,-13.53,33.91,
232,Yilan,TW,68.0,broken clouds,24.76,121.75,Dar Chen Hotel
235,Guerrero Negro,MX,62.64,clear sky,27.98,-114.06,"Casa Laguna, Bed & Breakfast"
237,Surt,LY,67.89,broken clouds,31.21,16.59,City Hotel
246,Dakar,SN,69.8,clear sky,14.69,-17.44,Novotel Dakar
258,Behbahan,IR,55.4,thunderstorm with rain,30.6,50.24,Hemidecenglyaei
262,Bardiyah,LY,59.65,clear sky,31.76,25.09,بورتو بردية
275,Najran,SA,64.4,clear sky,17.49,44.13,محمد هادي ال فطيح
282,Ribeira Grande,PT,57.16,broken clouds,38.52,-28.7,Quinta da Meia Eira
304,Te Anau,NZ,64.69,scattered clouds,-45.42,167.72,Kingsgate Hotel Te Anau
310,Mar Del Plata,AR,66.2,mist,-38.0,-57.56,Gran Hotel Mar del Plata habitaciones
318,Dali,CN,58.51,clear sky,25.7,100.18,Dali Travelling With Hostel
319,Saldanha,ZA,57.2,clear sky,-33.01,17.94,Blue Bay Lodge
320,Vinh,VN,65.77,overcast clouds,18.67,105.67,Hotels Shanghai
334,Naze,JP,66.2,broken clouds,28.37,129.48,奄美ポートタワーホテル
336,Tessalit,ML,60.37,clear sky,20.2,1.01,
337,Faya,SA,55.4,clear sky,18.39,42.45,مقبرة ال مجمل
338,Nago,JP,68.0,overcast clouds,26.59,127.98,Hotel Yugaf Inn Okinawa
339,Mino,JP,55.99,broken clouds,34.83,135.47,Senri Hankyu Hotel Osaka
341,Huarmey,PE,67.21,overcast clouds,-10.07,-78.15,Hotel Miramar
343,Susaki,JP,59.0,few clouds,33.37,133.28,Awa
344,Altea,ES,57.0,scattered clouds,38.6,-0.05,Albir Playa Hotel & Spa
346,Jinxiang,CN,59.07,broken clouds,27.43,120.61,Wolong Village
347,Umm Kaddadah,SD,62.02,clear sky,13.6,26.69,
357,Nizwa,OM,59.41,clear sky,22.93,57.53,Orient Apartments
359,Takayama,JP,55.0,broken clouds,36.13,137.25,Country Hotel Takayama
365,Kaabong,UG,65.32,overcast clouds,3.48,34.15,Rock Motel Ltd
366,Buraydah,SA,57.2,mist,26.33,43.98,Mövenpick Hotel Qassim
384,Medina,SA,57.2,clear sky,24.47,39.61,Anwar Al Madinah Mövenpick Hotel
387,Nadadores,MX,59.0,overcast clouds,27.05,-101.6,La Cabañita - Eventos
399,Andapa,MG,68.02,scattered clouds,-14.65,49.65,Ramanandraibe Andapa
401,Abu Dhabi,AE,68.0,clear sky,24.47,54.37,Beach Rotana
403,Lakes Entrance,AU,69.01,broken clouds,-37.88,147.98,The Esplanade Resort & Spa
408,Shingu,JP,55.4,broken clouds,33.73,135.98,Shingu UI Hotel
426,Ouadda,CF,69.8,few clouds,8.08,22.4,
430,Durango,MX,56.73,broken clouds,24.83,-104.83,
434,Asfi,MA,63.0,light rain,32.3,-9.24,Hôtel Abda
439,Prudentopolis,BR,64.08,scattered clouds,-25.21,-50.98,Mayná Palace Hotel
441,Tonk,IN,66.16,clear sky,26.17,75.78,Hotel Sheetal
443,Antofagasta,CL,62.6,broken clouds,-23.65,-70.4,Holiday Inn Express Antofagasta
450,Lagoa,PT,56.43,broken clouds,39.05,-27.98,Casa Das Faias
452,Laibin,CN,56.71,clear sky,23.7,109.27,Laibin Hotel
454,Casablanca,MA,59.0,broken clouds,33.59,-7.62,Hotel Moroccan House Casablanca
457,Zhuhai,CN,70.0,clear sky,22.28,113.57,珠海粤财假日酒店
458,Capelinha,BR,59.99,scattered clouds,-17.69,-42.52,Marinho Plaza Hotel
465,Puerto Madryn,AR,57.38,overcast clouds,-42.77,-65.04,Hotel Tolosa
466,Khonsa,IN,67.51,clear sky,27.02,95.57,
475,Adrar,MR,60.91,overcast clouds,20.5,-10.07,
476,Jiblah,YE,55.42,few clouds,13.92,44.15,Tiger Tower Hotel
480,Ngunguru,NZ,69.01,light rain,-35.62,174.5,Pacific Rendezvous Motel Resort
483,Kaitangata,NZ,55.99,broken clouds,-46.28,169.85,Kaitangata Motor Camp
490,Impfondo,CG,69.4,overcast clouds,1.64,18.07,Préfecture de la Likouala
493,Pattoki,PK,60.49,overcast clouds,31.02,73.85,Numan Ahmad
496,Nanga Eboko,CM,66.88,broken clouds,4.68,12.37,Akila Hotel
500,Camacha,PT,57.2,scattered clouds,33.08,-16.33,Hotel Porto Santo & Spa
506,Douentza,ML,67.01,clear sky,15.0,-2.95,Ogomono Doumbo
509,Marsaxlokk,MT,62.6,few clouds,35.84,14.54,Water's Edge
510,Dickinson,US,66.99,moderate rain,29.46,-95.05,Candlewood Suites League City
512,Tombouctou,ML,64.29,overcast clouds,20.0,-3.0,
513,Siderno,IT,59.0,light rain,38.28,16.3,Grand Hotel President
515,Mongo,TD,69.1,clear sky,12.18,18.69,Résidences du Programme FIDA
523,Saurimo,AO,63.19,broken clouds,-9.66,20.39,Hotel Kawissa Saurimo
533,Chinhoyi,ZW,65.43,overcast clouds,-17.37,30.2,Msasa Guest House Chinhoyi (Wendy Shaw)
534,Muzaffarabad,PK,56.1,overcast clouds,34.37,73.47,Pearl Continental Muzaffarabad
541,Nola,IT,55.0,light rain,40.92,14.53,Pamaran Hotel
542,Taltal,CL,61.84,clear sky,-25.4,-70.48,Residencial Karime
550,Taoudenni,ML,60.76,overcast clouds,22.68,-3.98,
560,Comodoro Rivadavia,AR,59.0,clear sky,-45.87,-67.5,Austral Hotel
562,Chimbote,PE,64.74,overcast clouds,-9.09,-78.58,Hotel Briliá
564,Lodja,CD,67.91,moderate rain,-3.48,23.43,
566,Jinka,ET,63.61,overcast clouds,5.65,36.65,
577,Kaeo,NZ,69.01,light rain,-35.1,173.78,Bushido Lodge
592,Waipawa,NZ,66.0,clear sky,-41.41,175.52,Tora Coastal Walk
593,Waddan,LY,62.04,broken clouds,29.16,16.14,محل الشريف محمد العايب
604,Hokitika,NZ,60.33,clear sky,-42.72,170.97,Beachfront Hotel Hokitika
605,Nouadhibou,MR,62.6,clear sky,20.93,-17.03,El Medina
617,Phalodi,IN,64.24,clear sky,27.13,72.37,"HOTEL NEW GOLDEN PALACE , PHALODI"
618,Arinos,BR,67.86,clear sky,-15.92,-46.11,casa do bruno
620,Necochea,AR,57.99,scattered clouds,-38.55,-58.74,dyd -mar Hotel
624,Christchurch,NZ,66.2,clear sky,-43.53,172.63,"Chateau on the Park - Christchurch, a DoubleTree by Hilton"
636,Sabha,LY,57.56,clear sky,27.04,14.43,محطة ام الارانب -سبها مواصلات
638,Adre,TD,63.3,clear sky,13.47,22.2,
642,Asosa,ET,66.78,broken clouds,10.07,34.53,Blendana Hotel Assosa
644,Maun,BW,69.8,clear sky,-19.98,23.42,Enviro Villa
646,Sadiqabad,PK,64.53,clear sky,28.31,70.13,MIDWAY HOTEL & RESTAURANT
654,Plettenberg Bay,ZA,58.51,few clouds,-34.05,23.37,Thanda Vista B&B
658,Viedma,AR,62.01,scattered clouds,-40.81,-63.0,Hotel Cristal
670,Qiongshan,CN,69.8,broken clouds,20.01,110.35,Sun City Restaurant
673,Biaora,IN,64.62,clear sky,23.87,76.92,SARPANCH MOTEL HOTEL
675,Avera,US,55.4,haze,33.19,-82.53,
676,Gidole,ET,55.76,scattered clouds,5.65,37.37,Shallom mekaneyesus church
677,Inhambupe,BR,69.21,light rain,-11.78,-38.35,Hotel JVS
681,Sesheke,ZM,69.08,broken clouds,-17.48,24.3,Protea Hotel by Marriott Zambezi River Lodge
683,Palermo,IT,59.0,scattered clouds,37.82,13.58,"Ponte Montagnola, Vicari"
688,Atar,MR,62.71,overcast clouds,20.52,-13.05,Oumou Elghoura
690,Mahmudabad,IN,55.4,mist,27.3,81.12,"Haider Services, Baitul Anwar"
694,Follonica,IT,55.0,overcast clouds,42.93,10.76,Hotel Parrini
703,Malanje,AO,64.09,overcast clouds,-9.54,16.34,Malanje Hotel
704,Sumter,US,69.01,broken clouds,28.71,-82.08,Paradise Oaks RV Resort
